{
  "224 E. 47th Street, NY, NY 10017": {
    "lat": 40.753662,
    "lng": -73.97113999999999,
    "formatted_address": "224 East 47th Street, New York, NY 10017, USA"
  },
  "1085 Washington Ave, Bronx NY": {
    "lat": 40.828169,
    "lng": -73.908964,
    "formatted_address": "1085 Washington Avenue, Bronx, NY 10456, USA"
  },
  "540 W 21st St, New York, NY 10011": {
    "lat": 40.7469356,
    "lng": -74.0064822,
    "formatted_address": "540 West 21st Street, New York, NY 10011, USA"
  },
  "402 E. 8th Street, Manhattan NY": {
    "lat": 40.72375539999999,
    "lng": -73.9762909,
    "formatted_address": "402 East 8th Street, New York, NY 10009, USA"
  },
  "21 Howard St, 5th Fl, New York, NY 10013": {
    "lat": 40.7217861,
    "lng": -74.0094471,
    "formatted_address": "New York, NY 10013, USA"
  },
  "127 W. 25th St., New York, NY 10011": {
    "lat": 40.74492,
    "lng": -73.993032,
    "formatted_address": "127 West 25th Street, New York, NY 10001, USA"
  },
  "111 Central Park North, New York, NY 10026": {
    "lat": 40.7984387,
    "lng": -73.952867,
    "formatted_address": "111 Central Park North, New York, NY 10026, USA"
  },
  "111 Central Park North, New York, NY": {
    "lat": 40.7984387,
    "lng": -73.952867,
    "formatted_address": "111 Central Park North, New York, NY 10026, USA"
  },
  "540 President Street, Suite 2F, Brooklyn, NY 11215": {
    "lat": 40.677383,
    "lng": -73.985131,
    "formatted_address": "540 President Street #2f, Brooklyn, NY 11215, USA"
  },
  "10 Grand Army Plaza in Brooklyn, NY": {
    "lat": 40.6724808,
    "lng": -73.9682084,
    "formatted_address": "10 Grand Army Plaza, Brooklyn, NY 11238, USA"
  },
  "Bronx Zoo": {
    "lat": 40.8505949,
    "lng": -73.8769982,
    "formatted_address": "Bronx Zoo, 2300 Southern Boulevard, Bronx, NY 10460, USA"
  },
  "Prospect Park Zoo": {
    "lat": 40.6653604,
    "lng": -73.9653575,
    "formatted_address": "Prospect Park Zoo, 450 Flatbush Avenue, Brooklyn, NY 11225, USA"
  },
  "Queens Zoo": {
    "lat": 40.7436249,
    "lng": -73.85051399999999,
    "formatted_address": "Queens Zoo, 53-51 111th Street, Flushing, NY 11368, USA"
  },
  "Central Park Zoo": {
    "lat": 40.767778,
    "lng": -73.9718335,
    "formatted_address": "Central Park Zoo, New York, NY 10021"
  }
}